[{"ident":"07FA","name":"Ocean Reef Club Airport","lat":25.3254,"lon":-80.2748},{"ident":"5A8","name":"Aleknagik / New Airport","lat":59.2826,"lon":-158.618},{"ident":"K61B","name":"Boulder City Municipal Airport","lat":35.9472,"lon":-114.8588},{"ident":"K67L","name":"Mesquite Airport","lat":36.8331,"lon":-114.0559},{"ident":"K76F","name":"Van Zandt County Regional Airport","lat":32.6815,"lon":-95.9841},{"ident":"K79J","name":"South Alabama Regional At Bill Benton Field Airport","lat":31.3088,"lon":-86.3938},{"ident":"KABE","name":"Lehigh Valley International Airport","lat":40.6518,"lon":-75.4428},{"ident":"KABI","name":"Abilene Regional Airport","lat":32.4113,"lon":-99.6819},{"ident":"KABQ","name":"Albuquerque International Sunport","lat":35.04,"lon":-106.6089},{"ident":"KABR","name":"Aberdeen Regional Airport","lat":45.4491,"lon":-98.4218},{"ident":"KABY","name":"Southwest Georgia Regional Airport","lat":31.5329,"lon":-84.1962},{"ident":"KACK","name":"Nantucket Memorial Airport","lat":41.2531,"lon":-70.0602},{"ident":"KACT","name":"Waco Regional Airport","lat":31.6113,"lon":-97.2305},{"ident":"KACV","name":"California Redwood Coast-Humboldt County Airport","lat":40.9781,"lon":-124.109},{"ident":"KACY","name":"Atlantic City International Airport","lat":39.4562,"lon":-74.5775},{"ident":"KADH","name":"Ada Regional Airport","lat":34.8052,"lon":-96.672},{"ident":"KADW","name":"Joint Base Andrews","lat":38.8108,"lon":-76.867},{"ident":"KAEG","name":"Double Eagle II Airport","lat":35.1452,"lon":-106.795},{"ident":"KAEX","name":"Alexandria International Airport","lat":31.3258,"lon":-92.5467},{"ident":"KAFW","name":"Perot Field/Fort Worth Alliance Airport","lat":32.9904,"lon":-97.3195},{"ident":"KAGC","name":"Allegheny County Airport","lat":40.3544,"lon":-79.9302},{"ident":"KAGS","name":"Augusta Regional At Bush Field","lat":33.3699,"lon":-81.9645},{"ident":"KAHN","name":"Athens Ben Epps Airport","lat":33.9488,"lon":-83.3256},{"ident":"KAIA","name":"Alliance Municipal Airport","lat":42.0525,"lon":-102.804},{"ident":"KAKR","name":"Akron Fulton International Airport","lat":41.0374,"lon":-81.4678},{"ident":"KALB","name":"Albany International Airport","lat":42.7483,"lon":-73.8017},{"ident":"KALI","name":"Alice International Airport","lat":27.7409,"lon":-98.0269},{"ident":"KALM","name":"Alamogordo White Sands Regional Airport","lat":32.8378,"lon":-105.9931},{"ident":"KALN","name":"St Louis Regional Airport","lat":38.8903,"lon":-90.046},{"ident":"KALO","name":"Waterloo Regional Airport","lat":42.5571,"lon":-92.4003},{"ident":"KALS","name":"San Luis Valley Regional Airport/Bergman Field","lat":37.4349,"lon":-105.867},{"ident":"KALW","name":"Walla Walla Regional Airport","lat":46.0949,"lon":-118.288},{"ident":"KAMA","name":"Rick Husband Amarillo International Airport","lat":35.2179,"lon":-101.7064},{"ident":"KANB","name":"Anniston Regional Airport","lat":33.5882,"lon":-85.8581},{"ident":"KAND","name":"Anderson Regional Airport","lat":34.4946,"lon":-82.7094},{"ident":"KAOO","name":"Altoona Blair County Airport","lat":40.2964,"lon":-78.32},{"ident":"KAPA","name":"Centennial Airport","lat":39.5701,"lon":-104.849},{"ident":"KAPF","name":"Naples Municipal Airport","lat":26.1526,"lon":-81.7753},{"ident":"KAPG","name":"Phillips Army Air Field","lat":39.4662,"lon":-76.1688},{"ident":"KAPN","name":"Alpena County Regional Airport","lat":45.0781,"lon":-83.5603},{"ident":"KARA","name":"Acadiana Regional Airport","lat":30.0378,"lon":-91.8839},{"ident":"KART","name":"Watertown International Airport","lat":43.9919,"lon":-76.0217},{"ident":"KASE","name":"Aspen-Pitkin County Airport (Sardy Field)","lat":39.2232,"lon":-106.869},{"ident":"KAST","name":"Astoria Regional Airport","lat":46.158,"lon":-123.879},{"ident":"KATL","name":"Hartsfield Jackson Atlanta International Airport","lat":33.6367,"lon":-84.4281},{"ident":"KATW","name":"Appleton International Airport","lat":44.2585,"lon":-88.519},{"ident":"KATY","name":"Watertown Regional Airport","lat":44.914,"lon":-97.1547},{"ident":"KAUG","name":"Augusta State Airport","lat":44.3206,"lon":-69.7973},{"ident":"KAUS","name":"Austin Bergstrom International Airport","lat":30.1975,"lon":-97.662},{"ident":"KAUW","name":"Wausau Downtown Airport","lat":44.9262,"lon":-89.6266},{"ident":"KAVL","name":"Asheville Regional Airport","lat":35.4355,"lon":-82.5419},{"ident":"KAVP","name":"Wilkes-Barre/Scranton International Airport","lat":41.3371,"lon":-75.7242},{"ident":"KAWO","name":"Arlington Municipal Airport","lat":48.1614,"lon":-122.1584},{"ident":"KAXN","name":"Chandler Field","lat":45.8663,"lon":-95.3947},{"ident":"KAZO","name":"Kalamazoo/Battle Creek International Airport","lat":42.2321,"lon":-85.5496},{"ident":"KBAB","name":"Beale Air Force Base","lat":39.1361,"lon":-121.437},{"ident":"KBAD","name":"Barksdale Air Force Base","lat":32.5018,"lon":-93.6627},{"ident":"KBAF","name":"Westfield-Barnes Regional Airport","lat":42.1578,"lon":-72.7156},{"ident":"KBAK","name":"Columbus Municipal Airport","lat":39.2624,"lon":-85.8956},{"ident":"KBAZ","name":"New Braunfels National Airport","lat":29.7045,"lon":-98.0422},{"ident":"KBBD","name":"Curtis Field","lat":31.1789,"lon":-99.3247},{"ident":"KBBG","name":"Branson Airport","lat":36.5321,"lon":-93.2005},{"ident":"KBCE","name":"Bryce Canyon Airport","lat":37.7064,"lon":-112.145},{"ident":"KBCT","name":"Boca Raton Airport","lat":26.3785,"lon":-80.1077},{"ident":"KBDE","name":"Baudette International Airport","lat":48.7284,"lon":-94.6122},{"ident":"KBDL","name":"Bradley International Airport","lat":41.9386,"lon":-72.688},{"ident":"KBDR","name":"Igor I Sikorsky Memorial Airport","lat":41.1635,"lon":-73.1262},{"ident":"KBED","name":"Laurence G Hanscom Field","lat":42.47,"lon":-71.289},{"ident":"KBFD","name":"Bradford Regional Airport","lat":41.8031,"lon":-78.6401},{"ident":"KBFF","name":"Western Neb. Rgnl/William B. Heilig Airport","lat":41.874,"lon":-103.596},{"ident":"KBFI","name":"King County International Airport - Boeing Field","lat":47.527,"lon":-122.2999},{"ident":"KBFL","name":"Meadows Field","lat":35.4336,"lon":-119.057},{"ident":"KBFM","name":"Mobile Downtown Airport","lat":30.6268,"lon":-88.0681},{"ident":"KBGM","name":"Greater Binghamton/Edwin A Link field","lat":42.2087,"lon":-75.9798},{"ident":"KBGR","name":"Bangor International Airport","lat":44.8064,"lon":-68.8267},{"ident":"KBHB","name":"Hancock County-Bar Harbor Airport","lat":44.45,"lon":-68.3615},{"ident":"KBHM","name":"Birmingham-Shuttlesworth International Airport","lat":33.5629,"lon":-86.7507},{"ident":"KBIF","name":"Biggs Army Air Field (Fort Bliss)","lat":31.8495,"lon":-106.38},{"ident":"KBIH","name":"Eastern Sierra Regional Airport","lat":37.3731,"lon":-118.364},{"ident":"KBIL","name":"Billings Logan International Airport","lat":45.8089,"lon":-108.5412},{"ident":"KBIS","name":"Bismarck Municipal Airport","lat":46.7727,"lon":-100.7469},{"ident":"KBIX","name":"Keesler Air Force Base","lat":30.4104,"lon":-88.9244},{"ident":"KBJC","name":"Rocky Mountain Metropolitan Airport","lat":39.9088,"lon":-105.117},{"ident":"KBJI","name":"Bemidji Regional Airport","lat":47.5094,"lon":-94.9337},{"ident":"KBKE","name":"Baker City Municipal Airport","lat":44.8373,"lon":-117.809},{"ident":"KBKF","name":"Buckley Space Force Base","lat":39.7017,"lon":-104.752},{"ident":"KBKL","name":"Burke Lakefront Airport","lat":41.5175,"lon":-81.6833},{"ident":"KBKW","name":"Raleigh County Memorial Airport","lat":37.7873,"lon":-81.1242},{"ident":"KBLF","name":"Mercer County Airport","lat":37.2958,"lon":-81.2077},{"ident":"KBLH","name":"Blythe Airport","lat":33.6192,"lon":-114.717},{"ident":"KBLI","name":"Bellingham International Airport","lat":48.7928,"lon":-122.538},{"ident":"KBLV","name":"Scott AFB/Midamerica Airport","lat":38.5452,"lon":-89.8352},{"ident":"KBMG","name":"Monroe County Airport","lat":39.146,"lon":-86.6167},{"ident":"KBMI","name":"Central Illinois Regional Airport at Bloomington-Normal","lat":40.4771,"lon":-88.9159},{"ident":"KBNA","name":"Nashville International Airport","lat":36.1245,"lon":-86.6782},{"ident":"KBNO","name":"Burns Municipal Airport","lat":43.5905,"lon":-118.9552},{"ident":"KBOI","name":"Boise Air Terminal/Gowen Field","lat":43.5644,"lon":-116.223},{"ident":"KBOS","name":"Boston Logan International Airport","lat":42.362,"lon":-71.0079},{"ident":"KBPI","name":"Miley Memorial Field","lat":42.5851,"lon":-110.111},{"ident":"KBPK","name":"Ozark Regional Airport","lat":36.3689,"lon":-92.4705},{"ident":"KBPT","name":"Jack Brooks Regional Airport","lat":29.9508,"lon":-94.0207},{"ident":"KBQK","name":"Brunswick Golden Isles Airport","lat":31.2588,"lon":-81.4665},{"ident":"KBRD","name":"Brainerd Lakes Regional Airport","lat":46.4029,"lon":-94.1297},{"ident":"KBRL","name":"Southeast Iowa Regional Airport","lat":40.7832,"lon":-91.1255},{"ident":"KBRO","name":"Brownsville South Padre Island International Airport","lat":25.9072,"lon":-97.4252},{"ident":"KBTL","name":"Battle Creek Executive Airport at Kellogg Field","lat":42.3073,"lon":-85.2515},{"ident":"KBTM","name":"Bert Mooney Airport","lat":45.9548,"lon":-112.497},{"ident":"KBTR","name":"Baton Rouge Metropolitan Airport","lat":30.5332,"lon":-91.1496},{"ident":"KBTV","name":"Patrick Leahy Burlington International Airport","lat":44.4719,"lon":-73.1533},{"ident":"KBUF","name":"Buffalo Niagara International Airport","lat":42.9405,"lon":-78.7322},{"ident":"KBUR","name":"Hollywood Burbank Airport","lat":34.2028,"lon":-118.3581},{"ident":"KBVI","name":"Beaver County Airport","lat":40.7725,"lon":-80.3914},{"ident":"KBVY","name":"Beverly Regional Airport","lat":42.5842,"lon":-70.9165},{"ident":"KBWG","name":"Bowling Green Warren County Regional Airport","lat":36.9645,"lon":-86.4197},{"ident":"KBWI","name":"Baltimore/Washington International Thurgood Marshall Airport","lat":39.1754,"lon":-76.6683},{"ident":"KBXM","name":"Brunswick Executive Airport","lat":43.8922,"lon":-69.9386},{"ident":"KBYH","name":"Arkansas International Airport","lat":35.9643,"lon":-89.944},{"ident":"KBYI","name":"Burley Municipal Airport","lat":42.5426,"lon":-113.772},{"ident":"KBYS","name":"Bicycle Lake Army Air Field","lat":35.2805,"lon":-116.63},{"ident":"KBZN","name":"Bozeman Yellowstone International Airport","lat":45.7789,"lon":-111.1537},{"ident":"KCAE","name":"Columbia Metropolitan Airport","lat":33.9382,"lon":-81.123},{"ident":"KCAK","name":"Akron Canton Regional Airport","lat":40.9161,"lon":-81.4422},{"ident":"KCAR","name":"Caribou Municipal Airport","lat":46.8715,"lon":-68.0179},{"ident":"KCBM","name":"Columbus Air Force Base","lat":33.6438,"lon":-88.4438},{"ident":"KCCR","name":"Buchanan Field","lat":37.9897,"lon":-122.057},{"ident":"KCCY","name":"Northeast Iowa Regional Airport","lat":43.0726,"lon":-92.6108},{"ident":"KCDC","name":"Cedar City Regional Airport","lat":37.701,"lon":-113.099},{"ident":"KCDR","name":"Chadron Municipal Airport","lat":42.8376,"lon":-103.095},{"ident":"KCDS","name":"Childress Municipal Airport","lat":34.4338,"lon":-100.288},{"ident":"KCEC","name":"Jack Mc Namara Field Airport","lat":41.7789,"lon":-124.2364},{"ident":"KCEF","name":"Westover Metropolitan Airport / Westover Air Reserve Base","lat":42.194,"lon":-72.5348},{"ident":"KCEW","name":"Bob Sikes Airport","lat":30.7788,"lon":-86.5221},{"ident":"KCEZ","name":"Cortez Municipal Airport","lat":37.303,"lon":-108.628},{"ident":"KCGF","name":"Cuyahoga County Airport","lat":41.5651,"lon":-81.4864},{"ident":"KCGI","name":"Cape Girardeau Regional Airport","lat":37.2253,"lon":-89.5708},{"ident":"KCHA","name":"Chattanooga Metropolitan Airport (Lovell Field)","lat":35.0353,"lon":-85.2038},{"ident":"KCHO","name":"Charlottesville Albemarle Airport","lat":38.1386,"lon":-78.4529},{"ident":"KCHS","name":"Charleston International Airport","lat":32.8962,"lon":-80.0382},{"ident":"KCID","name":"The Eastern Iowa Airport","lat":41.8847,"lon":-91.7108},{"ident":"KCIU","name":"Chippewa County International Airport","lat":46.242,"lon":-84.4621},{"ident":"KCKB","name":"North Central West Virginia Airport","lat":39.2966,"lon":-80.2281},{"ident":"KCLE","name":"Cleveland Hopkins International Airport","lat":41.4117,"lon":-81.8498},{"ident":"KCLL","name":"Easterwood Field","lat":30.5886,"lon":-96.3638},{"ident":"KCLM","name":"William R Fairchild International Airport","lat":48.1202,"lon":-123.5},{"ident":"KCLT","name":"Charlotte Douglas International Airport","lat":35.214,"lon":-80.9431},{"ident":"KCMA","name":"Camarillo International Airport","lat":34.2137,"lon":-119.094},{"ident":"KCMH","name":"John Glenn Columbus International Airport","lat":39.998,"lon":-82.8919},{"ident":"KCMI","name":"University of Illinois Willard Airport","lat":40.0398,"lon":-88.2762},{"ident":"KCMX","name":"Houghton County Memorial Airport","lat":47.1684,"lon":-88.4891},{"ident":"KCNM","name":"Cavern City Air Terminal","lat":32.3375,"lon":-104.263},{"ident":"KCNU","name":"Chanute Martin Johnson Airport","lat":37.6682,"lon":-95.4867},{"ident":"KCNY","name":"Canyonlands Regional Airport","lat":38.755,"lon":-109.755},{"ident":"KCOD","name":"Yellowstone Regional Airport","lat":44.5202,"lon":-109.024},{"ident":"KCOE","name":"Coeur D'Alene Airport - Pappy Boyington Field","lat":47.7743,"lon":-116.82},{"ident":"KCOF","name":"Patrick Space Force Base","lat":28.2349,"lon":-80.6101},{"ident":"KCON","name":"Concord Municipal Airport","lat":43.2027,"lon":-71.5023},{"ident":"KCOS","name":"City of Colorado Springs Municipal Airport","lat":38.8058,"lon":-104.701},{"ident":"KCOU","name":"Columbia Regional Airport","lat":38.8181,"lon":-92.2196},{"ident":"KCPR","name":"Casper-Natrona County International Airport","lat":42.9074,"lon":-106.4616},{"ident":"KCRE","name":"Grand Strand Airport","lat":33.8117,"lon":-78.7239},{"ident":"KCRG","name":"Jacksonville Executive at Craig Airport","lat":30.3363,"lon":-81.5144},{"ident":"KCRP","name":"Corpus Christi International Airport","lat":27.7704,"lon":-97.5012},{"ident":"KCRQ","name":"McClellan-Palomar Airport","lat":33.1283,"lon":-117.28},{"ident":"KCRW","name":"Yeager Airport","lat":38.3731,"lon":-81.5932},{"ident":"KCSG","name":"Columbus Airport","lat":32.5164,"lon":-84.9396},{"ident":"KCSV","name":"Crossville Memorial Airport Whitson Field","lat":35.9513,"lon":-85.085},{"ident":"KCTB","name":"Cut Bank International Airport","lat":48.6087,"lon":-112.3782},{"ident":"KCUB","name":"Jim Hamilton L.B. Owens Airport","lat":33.9705,"lon":-80.9952},{"ident":"KCVG","name":"Cincinnati Northern Kentucky International Airport","lat":39.0488,"lon":-84.6678},{"ident":"KCVN","name":"Clovis Municipal Airport","lat":34.4266,"lon":-103.0788},{"ident":"KCVO","name":"Corvallis Municipal Airport","lat":44.4972,"lon":-123.29},{"ident":"KCVS","name":"Cannon Air Force Base","lat":34.3828,"lon":-103.322},{"ident":"KCWA","name":"Central Wisconsin Airport","lat":44.7774,"lon":-89.6702},{"ident":"KCXO","name":"Conroe-North Houston Regional Airport","lat":30.3518,"lon":-95.4145},{"ident":"KCXP","name":"Carson Airport","lat":39.1943,"lon":-119.7343},{"ident":"KCYS","name":"Cheyenne Regional Jerry Olson Field","lat":41.1557,"lon":-104.812},{"ident":"KDAA","name":"Davison Army Air Field","lat":38.715,"lon":-77.181},{"ident":"KDAB","name":"Daytona Beach International Airport","lat":29.1825,"lon":-81.0595},{"ident":"KDAG","name":"Barstow Daggett Airport","lat":34.8537,"lon":-116.787},{"ident":"KDAL","name":"Dallas Love Field","lat":32.8448,"lon":-96.8477},{"ident":"KDAN","name":"Danville Regional Airport","lat":36.5729,"lon":-79.3361},{"ident":"KDAY","name":"James M. Cox Dayton International Airport","lat":39.9024,"lon":-84.2194},{"ident":"KDBQ","name":"Dubuque Regional Airport","lat":42.402,"lon":-90.7095},{"ident":"KDCA","name":"Ronald Reagan Washington National Airport","lat":38.8521,"lon":-77.0377},{"ident":"KDDC","name":"Dodge City Regional Airport","lat":37.7634,"lon":-99.9656},{"ident":"KDEC","name":"Decatur Airport","lat":39.8346,"lon":-88.8657},{"ident":"KDEN","name":"Denver International Airport","lat":39.86,"lon":-104.6738},{"ident":"KDET","name":"Coleman A. Young Municipal Airport","lat":42.4092,"lon":-83.0099},{"ident":"KDFW","name":"Dallas Fort Worth International Airport","lat":32.8968,"lon":-97.038},{"ident":"KDHN","name":"Dothan Regional Airport","lat":31.3213,"lon":-85.4496},{"ident":"KDHT","name":"Dalhart Municipal Airport","lat":36.0226,"lon":-102.547},{"ident":"KDIK","name":"Dickinson Theodore Roosevelt Regional Airport","lat":46.7975,"lon":-102.8019},{"ident":"KDLF","name":"Laughlin Air Force Base","lat":29.3595,"lon":-100.778},{"ident":"KDLH","name":"Duluth International Airport","lat":46.8419,"lon":-92.1987},{"ident":"KDLS","name":"Columbia Gorge Regional Airport","lat":45.621,"lon":-121.1708},{"ident":"KDMA","name":"Davis Monthan Air Force Base","lat":32.1665,"lon":-110.883},{"ident":"KDMN","name":"Deming Municipal Airport","lat":32.2623,"lon":-107.721},{"ident":"KDNL","name":"Daniel Field","lat":33.4665,"lon":-82.0394},{"ident":"KDOV","name":"Dover Civil Air Terminal/Dover Air Force Base","lat":39.1295,"lon":-75.466},{"ident":"KDPA","name":"Dupage Airport","lat":41.9078,"lon":-88.2486},{"ident":"KDRA","name":"Desert Rock Airport","lat":36.6194,"lon":-116.033},{"ident":"KDRI","name":"Beauregard Regional Airport","lat":30.8317,"lon":-93.3399},{"ident":"KDRO","name":"Durango La Plata County Airport","lat":37.1515,"lon":-107.754},{"ident":"KDRT","name":"Del Rio International Airport","lat":29.3742,"lon":-100.927},{"ident":"KDSM","name":"Des Moines International Airport","lat":41.534,"lon":-93.6567},{"ident":"KDTS","name":"Destin Executive Airport","lat":30.4001,"lon":-86.4715},{"ident":"KDTW","name":"Detroit Metropolitan Wayne County Airport","lat":42.2138,"lon":-83.3538},{"ident":"KDUA","name":"Durant Regional Airport - Eaker Field","lat":33.9397,"lon":-96.3951},{"ident":"KDUG","name":"Bisbee Douglas International Airport","lat":31.4641,"lon":-109.6046},{"ident":"KDUJ","name":"DuBois Regional Airport","lat":41.1783,"lon":-78.8987},{"ident":"KDVL","name":"Devils Lake Regional Airport","lat":48.1155,"lon":-98.9088},{"ident":"KDXR","name":"Danbury Municipal Airport","lat":41.3717,"lon":-73.4822},{"ident":"KDYS","name":"Dyess Air Force Base","lat":32.4208,"lon":-99.8546},{"ident":"KEAR","name":"Kearney Regional Airport","lat":40.727,"lon":-99.0068},{"ident":"KEAT","name":"Pangborn Memorial Airport","lat":47.3989,"lon":-120.207},{"ident":"KEAU","name":"Chippewa Valley Regional Airport","lat":44.8658,"lon":-91.4843},{"ident":"KECG","name":"Elizabeth City Regional Airport & Coast Guard Air Station","lat":36.2606,"lon":-76.1746},{"ident":"KECP","name":"Northwest Florida Beaches International Airport","lat":30.3571,"lon":-85.7954},{"ident":"KEDC","name":"Austin Executive Airport","lat":30.398,"lon":-97.5669},{"ident":"KEDW","name":"Edwards Air Force Base","lat":34.9108,"lon":-117.8864},{"ident":"KEED","name":"Needles Airport","lat":34.7663,"lon":-114.623},{"ident":"KEEN","name":"Dillant Hopkins Airport","lat":42.8984,"lon":-72.2708},{"ident":"KEET","name":"Shelby County Airport","lat":33.177,"lon":-86.7828},{"ident":"KEFD","name":"Ellington Airport","lat":29.6073,"lon":-95.1588},{"ident":"KEGE","name":"Eagle County Regional Airport","lat":39.6426,"lon":-106.918},{"ident":"KEGI","name":"Duke Field","lat":30.6504,"lon":-86.5229},{"ident":"KEKA","name":"Murray Field","lat":40.8034,"lon":-124.113},{"ident":"KEKN","name":"Elkins-Randolph County Regional Airport","lat":38.8898,"lon":-79.8577},{"ident":"KEKO","name":"Elko Regional Airport","lat":40.8249,"lon":-115.792},{"ident":"KELD","name":"South Arkansas Regional Airport at Goodwin Field","lat":33.221,"lon":-92.8133},{"ident":"KELM","name":"Elmira Corning Regional Airport","lat":42.1599,"lon":-76.8916},{"ident":"KELO","name":"Ely Municipal Airport","lat":47.8245,"lon":-91.8307},{"ident":"KELP","name":"El Paso International Airport","lat":31.8099,"lon":-106.3756},{"ident":"KELY","name":"Ely Airport Yelland Field","lat":39.2997,"lon":-114.842},{"ident":"KEND","name":"Vance Air Force Base","lat":36.3392,"lon":-97.9165},{"ident":"KENV","name":"Wendover Airport","lat":40.7187,"lon":-114.031},{"ident":"KENW","name":"Kenosha Regional Airport","lat":42.5957,"lon":-87.9278},{"ident":"KERI","name":"Erie International Tom Ridge Field","lat":42.0831,"lon":-80.1739},{"ident":"KESC","name":"Delta County Airport","lat":45.7232,"lon":-87.0886},{"ident":"KESF","name":"Esler Army Airfield / Esler Regional Airport","lat":31.3943,"lon":-92.2941},{"ident":"KEUG","name":"Eugene Airport","lat":44.1246,"lon":-123.212},{"ident":"KEVV","name":"Evansville Regional Airport","lat":38.037,"lon":-87.5324},{"ident":"KEVW","name":"Evanston-Uinta County Airport-Burns Field","lat":41.2748,"lon":-111.035},{"ident":"KEWB","name":"New Bedford Regional Airport","lat":41.6761,"lon":-70.9569},{"ident":"KEWN","name":"Coastal Carolina Regional Airport","lat":35.073,"lon":-77.0429},{"ident":"KEWR","name":"Newark Liberty International Airport","lat":40.6894,"lon":-74.1705},{"ident":"KEYW","name":"Key West International Airport","lat":24.5561,"lon":-81.7596},{"ident":"KFAF","name":"Felker Army Air Field","lat":37.1325,"lon":-76.6088},{"ident":"KFAR","name":"Hector International Airport","lat":46.9207,"lon":-96.8158},{"ident":"KFAT","name":"Fresno Yosemite International Airport","lat":36.7758,"lon":-119.718},{"ident":"KFAY","name":"Fayetteville Regional Airport - Grannis Field","lat":34.9912,"lon":-78.8803},{"ident":"KFBG","name":"Simmons Army Air Field","lat":35.1318,"lon":-78.9367},{"ident":"KFCS","name":"Butts AAF (Fort Carson) Air Field","lat":38.6784,"lon":-104.757},{"ident":"KFDY","name":"Findlay Airport","lat":41.0135,"lon":-83.6687},{"ident":"KFFO","name":"Wright-Patterson Air Force Base","lat":39.8261,"lon":-84.0483},{"ident":"KFHR","name":"Friday Harbor Airport","lat":48.5237,"lon":-123.0246},{"ident":"KFHU","name":"Sierra Vista Municipal Airport / Libby Army Air Field","lat":31.5874,"lon":-110.3482},{"ident":"KFKL","name":"Venango Regional Airport","lat":41.3779,"lon":-79.8604},{"ident":"KFLG","name":"Flagstaff Pulliam Airport","lat":35.1398,"lon":-111.6698},{"ident":"KFLL","name":"Fort Lauderdale Hollywood International Airport","lat":26.0726,"lon":-80.1527},{"ident":"KFLO","name":"Florence Regional Airport","lat":34.1854,"lon":-79.7239},{"ident":"KFME","name":"Fort Meade Executive Airport","lat":39.0854,"lon":-76.7594},{"ident":"KFMN","name":"Four Corners Regional Airport","lat":36.7412,"lon":-108.23},{"ident":"KFMY","name":"Page Field","lat":26.5866,"lon":-81.8633},{"ident":"KFNL","name":"Northern Colorado Regional Airport","lat":40.4497,"lon":-105.0113},{"ident":"KFNT","name":"Bishop International Airport","lat":42.9693,"lon":-83.7434},{"ident":"KFOD","name":"Fort Dodge Regional Airport","lat":42.5526,"lon":-94.1912},{"ident":"KFOE","name":"Topeka Regional Airport","lat":38.9509,"lon":-95.6636},{"ident":"KFPR","name":"Treasure Coast International Airport","lat":27.4951,"lon":-80.3683},{"ident":"KFRG","name":"Republic Airport","lat":40.7286,"lon":-73.4143},{"ident":"KFRI","name":"Marshall Army Air Field","lat":39.053,"lon":-96.7642},{"ident":"KFSD","name":"Sioux Falls Regional Airport","lat":43.5855,"lon":-96.7412},{"ident":"KFSI","name":"Henry Post Army Air Field","lat":34.6498,"lon":-98.4022},{"ident":"KFSM","name":"Fort Smith Regional Airport","lat":35.3366,"lon":-94.3674},{"ident":"KFST","name":"Fort Stockton Pecos County Airport","lat":30.9157,"lon":-102.916},{"ident":"KFTK","name":"Godman Army Air Field","lat":37.9071,"lon":-85.9721},{"ident":"KFTW","name":"Fort Worth Meacham International Airport","lat":32.8199,"lon":-97.3608},{"ident":"KFTY","name":"Fulton County Airport Brown Field","lat":33.7791,"lon":-84.5214},{"ident":"KFWA","name":"Fort Wayne International Airport","lat":40.9789,"lon":-85.1945},{"ident":"KFXE","name":"Fort Lauderdale Executive Airport","lat":26.1973,"lon":-80.1707},{"ident":"KFYV","name":"Drake Field","lat":36.0051,"lon":-94.1701},{"ident":"KGCC","name":"Northeast Wyoming Regional Airport","lat":44.3489,"lon":-105.539},{"ident":"KGCK","name":"Garden City Regional Airport","lat":37.9275,"lon":-100.724},{"ident":"KGCN","name":"Grand Canyon National Park Airport","lat":35.9524,"lon":-112.147},{"ident":"KGDV","name":"Dawson Community Airport","lat":47.1377,"lon":-104.8069},{"ident":"KGEG","name":"Spokane International Airport","lat":47.6199,"lon":-117.534},{"ident":"KGFK","name":"Grand Forks International Airport","lat":47.9493,"lon":-97.1761},{"ident":"KGFL","name":"Floyd Bennett Memorial Airport","lat":43.3412,"lon":-73.6103},{"ident":"KGGG","name":"East Texas Regional Airport","lat":32.384,"lon":-94.7115},{"ident":"KGGW","name":"Glasgow Valley County Airport Wokal Field","lat":48.2125,"lon":-106.615},{"ident":"KGJT","name":"Grand Junction Regional Airport","lat":39.1267,"lon":-108.5294},{"ident":"KGLD","name":"Goodland Municipal Airport","lat":39.3707,"lon":-101.6998},{"ident":"KGLH","name":"Mid Delta Regional Airport","lat":33.4829,"lon":-90.9856},{"ident":"KGLS","name":"Scholes International At Galveston Airport","lat":29.2653,"lon":-94.8604},{"ident":"KGMU","name":"Greenville Downtown Airport","lat":34.8479,"lon":-82.3502},{"ident":"KGNV","name":"Gainesville Regional Airport","lat":29.6901,"lon":-82.2718},{"ident":"KGON","name":"Groton New London Airport","lat":41.3301,"lon":-72.0451},{"ident":"KGPI","name":"Glacier Park International Airport","lat":48.3105,"lon":-114.256},{"ident":"KGPT","name":"Gulfport Biloxi International Airport","lat":30.4056,"lon":-89.0698},{"ident":"KGRB","name":"Austin Straubel International Airport","lat":44.4835,"lon":-88.1308},{"ident":"KGRF","name":"Gray Army Air Field","lat":47.0792,"lon":-122.581},{"ident":"KGRI","name":"Central Nebraska Regional Airport","lat":40.9675,"lon":-98.3096},{"ident":"KGRK","name":"Killeen Regional Airport / Robert Gray Army Airfield","lat":31.0672,"lon":-97.8289},{"ident":"KGRR","name":"Gerald R. Ford International Airport","lat":42.8808,"lon":-85.5228},{"ident":"KGSB","name":"Seymour Johnson Air Force Base","lat":35.3394,"lon":-77.9606},{"ident":"KGSO","name":"Piedmont Triad International Airport","lat":36.0994,"lon":-79.9373},{"ident":"KGSP","name":"Greenville-Spartanburg International Airport","lat":34.8957,"lon":-82.2189},{"ident":"KGTB","name":"Wheeler Sack Army Air Field","lat":44.0556,"lon":-75.7195},{"ident":"KGTF","name":"Great Falls International Airport","lat":47.482,"lon":-111.371},{"ident":"KGTR","name":"Golden Triangle Regional Airport","lat":33.4503,"lon":-88.5914},{"ident":"KGUC","name":"Gunnison Crested Butte Regional Airport","lat":38.5347,"lon":-106.9346},{"ident":"KGUP","name":"Gallup Municipal Airport","lat":35.5117,"lon":-108.7882},{"ident":"KGUS","name":"Grissom Air Reserve Base","lat":40.6481,"lon":-86.1521},{"ident":"KGUY","name":"Guymon Municipal Airport","lat":36.6851,"lon":-101.508},{"ident":"KGWO","name":"Greenwood\u2013Leflore Airport","lat":33.495,"lon":-90.0882},{"ident":"KGYI","name":"North Texas Regional Airport Perrin Field","lat":33.7141,"lon":-96.6737},{"ident":"KGYY","name":"Gary/Chicago International Airport","lat":41.6171,"lon":-87.4132},{"ident":"KHBG","name":"Hattiesburg Bobby L Chain Municipal Airport","lat":31.2648,"lon":-89.2528},{"ident":"KHBR","name":"Hobart Regional Airport","lat":34.9913,"lon":-99.0513},{"ident":"KHDN","name":"Yampa Valley Airport","lat":40.4812,"lon":-107.218},{"ident":"KHEF","name":"Manassas Regional Airport/Harry P. Davis Field","lat":38.7214,"lon":-77.5154},{"ident":"KHFD","name":"Hartford Brainard Airport","lat":41.7367,"lon":-72.6494},{"ident":"KHGR","name":"Hagerstown Regional Richard A Henson Field","lat":39.7088,"lon":-77.728},{"ident":"KHHR","name":"Jack Northrop Field Hawthorne Municipal Airport","lat":33.9228,"lon":-118.335},{"ident":"KHIB","name":"Range Regional Airport","lat":47.3848,"lon":-92.8369},{"ident":"KHIF","name":"Hill Air Force Base","lat":41.124,"lon":-111.9731},{"ident":"KHII","name":"Lake Havasu City Airport","lat":34.5705,"lon":-114.3577},{"ident":"KHIO","name":"Portland Hillsboro Airport","lat":45.5404,"lon":-122.95},{"ident":"KHKY","name":"Hickory Regional Airport","lat":35.7411,"lon":-81.3895},{"ident":"KHLG","name":"Wheeling Ohio County Airport","lat":40.175,"lon":-80.6463},{"ident":"KHLN","name":"Helena Regional Airport","lat":46.6068,"lon":-111.983},{"ident":"KHMN","name":"Holloman Air Force Base","lat":32.8525,"lon":-106.107},{"ident":"KHOB","name":"Lea County Regional Airport","lat":32.6875,"lon":-103.217},{"ident":"KHON","name":"Huron Regional Airport","lat":44.3852,"lon":-98.2285},{"ident":"KHOP","name":"Campbell Army Airfield (Fort Campbell)","lat":36.6742,"lon":-87.4897},{"ident":"KHOT","name":"Memorial Field Airport","lat":34.4788,"lon":-93.0963},{"ident":"KHOU","name":"William P. Hobby Airport","lat":29.6453,"lon":-95.2768},{"ident":"KHPN","name":"Westchester County Airport","lat":41.067,"lon":-73.7076},{"ident":"KHQM","name":"Bowerman Airport","lat":46.9712,"lon":-123.937},{"ident":"KHRL","name":"Valley International Airport","lat":26.2285,"lon":-97.6544},{"ident":"KHRO","name":"Boone County Airport","lat":36.2615,"lon":-93.1547},{"ident":"KHRT","name":"Hurlburt Field","lat":30.4278,"lon":-86.6893},{"ident":"KHST","name":"Homestead Air Reserve Base","lat":25.4886,"lon":-80.3836},{"ident":"KHSV","name":"Huntsville International Airport","lat":34.6362,"lon":-86.7744},{"ident":"KHTS","name":"Tri-State Airport / Milton J. Ferguson Field","lat":38.3667,"lon":-82.558},{"ident":"KHUA","name":"Redstone Army Air Field","lat":34.6787,"lon":-86.6848},{"ident":"KHUF","name":"Terre Haute Regional Airport, Hulman Field","lat":39.4515,"lon":-87.3076},{"ident":"KHUL","name":"Houlton International Airport","lat":46.1231,"lon":-67.7921},{"ident":"KHUT","name":"Hutchinson Municipal Airport","lat":38.0655,"lon":-97.8606},{"ident":"KHVN","name":"Tweed New Haven Airport","lat":41.2629,"lon":-72.8877},{"ident":"KHVR","name":"Havre City County Airport","lat":48.5414,"lon":-109.7629},{"ident":"KHWO","name":"North Perry Airport","lat":26.0012,"lon":-80.2407},{"ident":"KHXD","name":"Hilton Head Airport","lat":32.2244,"lon":-80.6975},{"ident":"KHYA","name":"Cape Cod Gateway Airport","lat":41.6693,"lon":-70.2804},{"ident":"KHYI","name":"San Marcos Regional Airport","lat":29.8927,"lon":-97.863},{"ident":"KHYR","name":"Sawyer County Airport","lat":46.0252,"lon":-91.4443},{"ident":"KHYS","name":"Hays Regional Airport","lat":38.8445,"lon":-99.2731},{"ident":"KHZY","name":"Northeast Ohio Regional Airport","lat":41.778,"lon":-80.6955},{"ident":"KI39","name":"Central Kentucky Regional Airport","lat":37.6308,"lon":-84.3323},{"ident":"KIAB","name":"McConnell Air Force Base","lat":37.6219,"lon":-97.2682},{"ident":"KIAD","name":"Washington Dulles International Airport","lat":38.9445,"lon":-77.4558},{"ident":"KIAG","name":"Niagara Falls International Airport","lat":43.1073,"lon":-78.9462},{"ident":"KIAH","name":"George Bush Intercontinental Airport","lat":29.9844,"lon":-95.3414},{"ident":"KICT","name":"Wichita Dwight D. Eisenhower National Airport","lat":37.6503,"lon":-97.4286},{"ident":"KIDA","name":"Idaho Falls Regional Airport","lat":43.5146,"lon":-112.071},{"ident":"KIFP","name":"Laughlin Bullhead International Airport","lat":35.1547,"lon":-114.5593},{"ident":"KIGM","name":"Kingman Airport","lat":35.2595,"lon":-113.938},{"ident":"KIKK","name":"Greater Kankakee Airport","lat":41.0714,"lon":-87.8463},{"ident":"KILG","name":"Wilmington Airport","lat":39.6787,"lon":-75.6065},{"ident":"KILM","name":"Wilmington International Airport","lat":34.2723,"lon":-77.9051},{"ident":"KILN","name":"Wilmington Airpark","lat":39.4279,"lon":-83.7921},{"ident":"KIMT","name":"Ford Airport","lat":45.8191,"lon":-88.1146},{"ident":"KIND","name":"Indianapolis International Airport","lat":39.7173,"lon":-86.2944},{"ident":"KINK","name":"Winkler County Airport","lat":31.7796,"lon":-103.201},{"ident":"KINL","name":"Falls International Airport","lat":48.5662,"lon":-93.4031},{"ident":"KINT","name":"Smith Reynolds Airport","lat":36.1337,"lon":-80.222},{"ident":"KINW","name":"Winslow Lindbergh Regional Airport","lat":35.0219,"lon":-110.723},{"ident":"KIPL","name":"Imperial County Airport","lat":32.8354,"lon":-115.574},{"ident":"KIPT","name":"Williamsport Regional Airport","lat":41.2421,"lon":-76.9224},{"ident":"KIRK","name":"Kirksville Regional Airport","lat":40.0935,"lon":-92.5449},{"ident":"KISM","name":"Kissimmee Gateway Airport","lat":28.2898,"lon":-81.4371},{"ident":"KISO","name":"Kinston Regional Jetport At Stallings Field","lat":35.3314,"lon":-77.6088},{"ident":"KISP","name":"Long Island MacArthur Airport","lat":40.7963,"lon":-73.1017},{"ident":"KITH","name":"Ithaca Tompkins Regional Airport","lat":42.491,"lon":-76.4584},{"ident":"KIWA","name":"Mesa Gateway Airport","lat":33.3078,"lon":-111.655},{"ident":"KJAC","name":"Jackson Hole Airport","lat":43.6073,"lon":-110.738},{"ident":"KJAN","name":"Jackson-Medgar Wiley Evers International Airport","lat":32.3112,"lon":-90.0759},{"ident":"KJAX","name":"Jacksonville International Airport","lat":30.4925,"lon":-81.6878},{"ident":"KJBR","name":"Jonesboro Municipal Airport","lat":35.8317,"lon":-90.6464},{"ident":"KJCT","name":"Kimble County Airport","lat":30.5113,"lon":-99.7635},{"ident":"KJFK","name":"John F. Kennedy International Airport","lat":40.6394,"lon":-73.7793},{"ident":"KJHW","name":"Chautauqua County-Jamestown Airport","lat":42.1542,"lon":-79.254},{"ident":"KJKL","name":"Julian Carroll Airport","lat":37.5939,"lon":-83.3173},{"ident":"KJLN","name":"Joplin Regional Airport","lat":37.1518,"lon":-94.4983},{"ident":"KJMS","name":"Jamestown Regional Airport","lat":46.9297,"lon":-98.6782},{"ident":"KJNX","name":"Johnston Regional Airport","lat":35.5409,"lon":-78.3903},{"ident":"KJQF","name":"Concord-Padgett Regional Airport","lat":35.3878,"lon":-80.7091},{"ident":"KJST","name":"John Murtha Johnstown Cambria County Airport","lat":40.3161,"lon":-78.8339},{"ident":"KJWY","name":"Mid-Way Regional Airport","lat":32.4587,"lon":-96.9124},{"ident":"KJXN","name":"Jackson County Airport/Reynolds Field","lat":42.2605,"lon":-84.463},{"ident":"KKLS","name":"Southwest Washington Regional Airport","lat":46.118,"lon":-122.898},{"ident":"KL45","name":"Bakersfield International Airport","lat":35.3248,"lon":-118.996},{"ident":"KL71","name":"California City Municipal Airport","lat":35.1514,"lon":-118.0161},{"ident":"KLAA","name":"Southeast Colorado Regional Airport","lat":38.0664,"lon":-102.6914},{"ident":"KLAF","name":"Purdue University Airport","lat":40.4129,"lon":-86.9394},{"ident":"KLAL","name":"Lakeland Linder International Airport","lat":27.9893,"lon":-82.0207},{"ident":"KLAN","name":"Capital Region International Airport","lat":42.7776,"lon":-84.5857},{"ident":"KLAR","name":"Laramie Regional Airport","lat":41.3121,"lon":-105.675},{"ident":"KLAS","name":"Harry Reid International Airport","lat":36.0834,"lon":-115.1518},{"ident":"KLAW","name":"Lawton Fort Sill Regional Airport","lat":34.5677,"lon":-98.4166},{"ident":"KLAX","name":"Los Angeles International Airport","lat":33.9425,"lon":-118.408},{"ident":"KLBB","name":"Lubbock Preston Smith International Airport","lat":33.6636,"lon":-101.823},{"ident":"KLBE","name":"Arnold Palmer Regional Airport","lat":40.2759,"lon":-79.4048},{"ident":"KLBF","name":"North Platte Regional Airport Lee Bird Field","lat":41.1262,"lon":-100.684},{"ident":"KLBL","name":"Liberal Mid-America Regional Airport","lat":37.0442,"lon":-100.96},{"ident":"KLBT","name":"Lumberton Regional Airport","lat":34.6108,"lon":-79.0594},{"ident":"KLBX","name":"Texas Gulf Coast Regional Airport","lat":29.1086,"lon":-95.4621},{"ident":"KLCH","name":"Lake Charles Regional Airport","lat":30.1261,"lon":-93.2233},{"ident":"KLCK","name":"Rickenbacker International Airport","lat":39.8138,"lon":-82.9278},{"ident":"KLEB","name":"Lebanon Municipal Airport","lat":43.6261,"lon":-72.3042},{"ident":"KLEE","name":"Leesburg International Airport","lat":28.8231,"lon":-81.8087},{"ident":"KLEX","name":"Blue Grass Airport","lat":38.0351,"lon":-84.6067},{"ident":"KLFI","name":"Langley Air Force Base","lat":37.0829,"lon":-76.3605},{"ident":"KLFK","name":"Angelina County Airport","lat":31.234,"lon":-94.75},{"ident":"KLFT","name":"Lafayette Regional Airport","lat":30.2053,"lon":-91.9876},{"ident":"KLGA","name":"LaGuardia Airport","lat":40.7772,"lon":-73.8726},{"ident":"KLGB","name":"Long Beach International Airport","lat":33.8165,"lon":-118.1499},{"ident":"KLGU","name":"Logan-Cache Airport","lat":41.7912,"lon":-111.852},{"ident":"KLIT","name":"Bill & Hillary Clinton National Airport/Adams Field","lat":34.7292,"lon":-92.2236},{"ident":"KLLQ","name":"Monticello Municipal Ellis Field","lat":33.6386,"lon":-91.751},{"ident":"KLMT","name":"Crater Lake-Klamath Regional Airport","lat":42.1561,"lon":-121.733},{"ident":"KLND","name":"Hunt Field","lat":42.8152,"lon":-108.73},{"ident":"KLNK","name":"Lincoln Airport","lat":40.8449,"lon":-96.7618},{"ident":"KLNS","name":"Lancaster Airport","lat":40.1217,"lon":-76.2961},{"ident":"KLOL","name":"Derby Field","lat":40.0664,"lon":-118.565},{"ident":"KLOU","name":"Bowman Field","lat":38.228,"lon":-85.6637},{"ident":"KLOZ","name":"London-Corbin Airport/Magee Field","lat":37.0822,"lon":-84.0849},{"ident":"KLRD","name":"Laredo International Airport","lat":27.5438,"lon":-99.4616},{"ident":"KLRF","name":"Little Rock Air Force Base","lat":34.9169,"lon":-92.1497},{"ident":"KLRU","name":"Las Cruces International Airport","lat":32.2894,"lon":-106.922},{"ident":"KLSE","name":"La Crosse Regional Airport","lat":43.879,"lon":-91.2567},{"ident":"KLSF","name":"Lawson Army Air Field","lat":32.3325,"lon":-84.988},{"ident":"KLSV","name":"Nellis Air Force Base","lat":36.2362,"lon":-115.034},{"ident":"KLTS","name":"Altus Air Force Base","lat":34.6671,"lon":-99.2667},{"ident":"KLUF","name":"Luke Air Force Base","lat":33.535,"lon":-112.383},{"ident":"KLUK","name":"Cincinnati Municipal Airport Lunken Field","lat":39.1024,"lon":-84.4189},{"ident":"KLVM","name":"Mission Field","lat":45.6994,"lon":-110.448},{"ident":"KLVS","name":"Las Vegas Municipal Airport","lat":35.6542,"lon":-105.142},{"ident":"KLWB","name":"Greenbrier Valley Airport","lat":37.8579,"lon":-80.4004},{"ident":"KLWM","name":"Lawrence Municipal Airport","lat":42.7172,"lon":-71.1234},{"ident":"KLWS","name":"Lewiston Nez Perce County Airport","lat":46.3745,"lon":-117.015},{"ident":"KLWT","name":"Lewistown Municipal Airport","lat":47.0484,"lon":-109.4661},{"ident":"KLYH","name":"Lynchburg Regional Airport - Preston Glenn Field","lat":37.3267,"lon":-79.2004},{"ident":"KMAF","name":"Midland International Air and Space Port","lat":31.9425,"lon":-102.202},{"ident":"KMBG","name":"Mobridge Municipal Airport","lat":45.5465,"lon":-100.408},{"ident":"KMBS","name":"MBS International Airport","lat":43.5332,"lon":-84.0831},{"ident":"KMCB","name":"McComb-Pike County Airport / John E Lewis Field","lat":31.1785,"lon":-90.4719},{"ident":"KMCC","name":"McClellan Airfield","lat":38.6676,"lon":-121.401},{"ident":"KMCE","name":"Merced Regional Macready Field","lat":37.2847,"lon":-120.514},{"ident":"KMCF","name":"MacDill Air Force Base","lat":27.8493,"lon":-82.5212},{"ident":"KMCI","name":"Kansas City International Airport","lat":39.3017,"lon":-94.7139},{"ident":"KMCK","name":"McCook Ben Nelson Regional Airport","lat":40.2078,"lon":-100.5928},{"ident":"KMCN","name":"Middle Georgia Regional Airport","lat":32.6928,"lon":-83.6492},{"ident":"KMCO","name":"Orlando International Airport","lat":28.4294,"lon":-81.309},{"ident":"KMCW","name":"Mason City Municipal Airport","lat":43.1598,"lon":-93.3297},{"ident":"KMDH","name":"Southern Illinois Airport","lat":37.7781,"lon":-89.252},{"ident":"KMDT","name":"Harrisburg International Airport","lat":40.1928,"lon":-76.7623},{"ident":"KMDW","name":"Chicago Midway International Airport","lat":41.786,"lon":-87.7524},{"ident":"KMEI","name":"Key Field / Meridian Regional Airport","lat":32.3326,"lon":-88.7519},{"ident":"KMEM","name":"Memphis International Airport","lat":35.0438,"lon":-89.9763},{"ident":"KMER","name":"Castle Airport","lat":37.3805,"lon":-120.568},{"ident":"KMFD","name":"Mansfield Lahm Regional Airport","lat":40.8214,"lon":-82.5166},{"ident":"KMFE","name":"McAllen Miller International Airport","lat":26.1761,"lon":-98.238},{"ident":"KMFR","name":"Rogue Valley International-Medford Airport","lat":42.3742,"lon":-122.873},{"ident":"KMGC","name":"Michigan City Municipal Airport","lat":41.7033,"lon":-86.8212},{"ident":"KMGE","name":"Dobbins Air Reserve Base","lat":33.9154,"lon":-84.5163},{"ident":"KMGM","name":"Montgomery Regional (Dannelly Field) Airport","lat":32.3006,"lon":-86.394},{"ident":"KMGW","name":"Morgantown Municipal Airport Walter L. (Bill) Hart Field","lat":39.6433,"lon":-79.9176},{"ident":"KMHK","name":"Manhattan Regional Airport","lat":39.141,"lon":-96.6708},{"ident":"KMHR","name":"Sacramento Mather Airport","lat":38.5547,"lon":-121.298},{"ident":"KMHT","name":"Manchester-Boston Regional Airport","lat":42.9326,"lon":-71.4357},{"ident":"KMHV","name":"Mojave Air &  Space Port","lat":35.0564,"lon":-118.1453},{"ident":"KMIA","name":"Miami International Airport","lat":25.796,"lon":-80.2898},{"ident":"KMIB","name":"Minot Air Force Base","lat":48.4156,"lon":-101.358},{"ident":"KMIE","name":"Delaware County Johnson Field","lat":40.2423,"lon":-85.3959},{"ident":"KMIV","name":"Millville Municipal Airport","lat":39.3678,"lon":-75.0722},{"ident":"KMKC","name":"Charles B. Wheeler Downtown Airport","lat":39.1232,"lon":-94.5928},{"ident":"KMKE","name":"General Mitchell International Airport","lat":42.9472,"lon":-87.8966},{"ident":"KMKG","name":"Muskegon County Airport","lat":43.1695,"lon":-86.2382},{"ident":"KMKL","name":"McKellar-Sipes Regional Airport","lat":35.5999,"lon":-88.9156},{"ident":"KMLB","name":"Melbourne Orlando International Airport","lat":28.102,"lon":-80.6411},{"ident":"KMLC","name":"Mc Alester Regional Airport","lat":34.8824,"lon":-95.7835},{"ident":"KMLI","name":"Quad City International Airport","lat":41.4485,"lon":-90.5075},{"ident":"KMLS","name":"Miles City Airport - Frank Wiley Field","lat":46.4273,"lon":-105.8854},{"ident":"KMLU","name":"Monroe Regional Airport","lat":32.5109,"lon":-92.0377},{"ident":"KMMT","name":"Mc Entire Joint National Guard Base","lat":33.9208,"lon":-80.8013},{"ident":"KMMU","name":"Morristown Municipal Airport","lat":40.7991,"lon":-74.4149},{"ident":"KMMV","name":"McMinnville Municipal Airport","lat":45.1944,"lon":-123.136},{"ident":"KMOB","name":"Mobile Regional Airport","lat":30.6912,"lon":-88.2428},{"ident":"KMOD","name":"Modesto City Co-Harry Sham Field","lat":37.6258,"lon":-120.954},{"ident":"KMOT","name":"Minot International Airport","lat":48.258,"lon":-101.2791},{"ident":"KMPV","name":"Edward F Knapp State Airport","lat":44.2035,"lon":-72.5623},{"ident":"KMQY","name":"Smyrna Airport","lat":36.009,"lon":-86.5201},{"ident":"KMRB","name":"Eastern WV Regional Airport/Shepherd Field","lat":39.4019,"lon":-77.9846},{"ident":"KMRY","name":"Monterey Regional Airport","lat":36.5868,"lon":-121.8442},{"ident":"KMSL","name":"Northwest Alabama Regional Airport","lat":34.7451,"lon":-87.613},{"ident":"KMSN","name":"Dane County Regional Truax Field","lat":43.1399,"lon":-89.3375},{"ident":"KMSO","name":"Missoula Montana Airport","lat":46.9158,"lon":-114.0911},{"ident":"KMSP","name":"Minneapolis\u2013Saint Paul International Airport / Wold\u2013Chamberlain Field","lat":44.8801,"lon":-93.2217},{"ident":"KMSS","name":"Massena International Airport Richards Field","lat":44.9362,"lon":-74.8443},{"ident":"KMSY","name":"Louis Armstrong New Orleans International Airport","lat":29.9934,"lon":-90.2647},{"ident":"KMTC","name":"Selfridge Air National Guard Base Airport","lat":42.6135,"lon":-82.8369},{"ident":"KMTH","name":"Florida Keys Marathon International Airport","lat":24.726,"lon":-81.0514},{"ident":"KMTJ","name":"Montrose Regional Airport","lat":38.5098,"lon":-107.894},{"ident":"KMTN","name":"Martin State Airport","lat":39.3257,"lon":-76.4138},{"ident":"KMUI","name":"Muir Army Air Field (Fort Indiantown Gap) Airport","lat":40.4352,"lon":-76.5687},{"ident":"KMUO","name":"Mountain Home Air Force Base","lat":43.0436,"lon":-115.872},{"ident":"KMWA","name":"Veterans Airport of Southern Illinois","lat":37.7512,"lon":-89.0166},{"ident":"KMWH","name":"Grant County International Airport","lat":47.2077,"lon":-119.32},{"ident":"KMWL","name":"Mineral Wells Regional Airport","lat":32.7816,"lon":-98.0602},{"ident":"KMXF","name":"Maxwell Air Force Base","lat":32.3829,"lon":-86.3658},{"ident":"KMYL","name":"McCall Municipal Airport","lat":44.8888,"lon":-116.1011},{"ident":"KMYR","name":"Myrtle Beach International Airport","lat":33.6797,"lon":-78.9283},{"ident":"KMYV","name":"Yuba County Airport","lat":39.0978,"lon":-121.57},{"ident":"KNBC","name":"Beaufort MCAS - Merritt Field","lat":32.4774,"lon":-80.7232},{"ident":"KNBG","name":"New Orleans NAS JRB/Alvin Callender Field","lat":29.8253,"lon":-90.035},{"ident":"KNCA","name":"MCAS New River / McCutcheon Field","lat":34.7084,"lon":-77.4397},{"ident":"KNDZ","name":"Whiting Field Naval Air Station South Airport","lat":30.7044,"lon":-87.023},{"ident":"KNEL","name":"Lakehurst Maxfield Field Airport","lat":40.0333,"lon":-74.3533},{"ident":"KNEW","name":"Lakefront Airport","lat":30.0424,"lon":-90.0283},{"ident":"KNFG","name":"Camp Pendleton MCAS (Munn Field) Airport","lat":33.3013,"lon":-117.355},{"ident":"KNFL","name":"Fallon Naval Air Station","lat":39.4166,"lon":-118.701},{"ident":"KNFW","name":"NAS Fort Worth JRB / Carswell Field","lat":32.7692,"lon":-97.4415},{"ident":"KNGP","name":"Naval Air Station Corpus Christi Truax Field","lat":27.6926,"lon":-97.2911},{"ident":"KNGU","name":"Norfolk Naval Station (Chambers Field)","lat":36.9376,"lon":-76.2893},{"ident":"KNHK","name":"Patuxent River Naval Air Station (Trapnell Field)","lat":38.286,"lon":-76.4118},{"ident":"KNID","name":"China Lake Naws (Armitage Field) Airport","lat":35.6854,"lon":-117.692},{"ident":"KNIP","name":"Jacksonville Naval Air Station (Towers Field)","lat":30.2358,"lon":-81.6806},{"ident":"KNJK","name":"El Centro NAF Airport (Vraciu Field)","lat":32.8292,"lon":-115.672},{"ident":"KNKT","name":"Cherry Point MCAS / Cunningham Field/","lat":34.9009,"lon":-76.8807},{"ident":"KNKX","name":"Miramar Marine Corps Air Station - Mitscher Field","lat":32.8684,"lon":-117.143},{"ident":"KNLC","name":"Lemoore Naval Air Station (Reeves Field) Airport","lat":36.333,"lon":-119.952},{"ident":"KNMM","name":"Naval Air Station Meridian / McCain Field","lat":32.5531,"lon":-88.5541},{"ident":"KNPA","name":"Naval Air Station Pensacola Forrest Sherman Field","lat":30.3527,"lon":-87.3186},{"ident":"KNQA","name":"Millington-Memphis Airport","lat":35.3567,"lon":-89.8703},{"ident":"KNQI","name":"Kingsville Naval Air Station","lat":27.5072,"lon":-97.8097},{"ident":"KNQX","name":"Naval Air Station Key West/Boca Chica Field","lat":24.5758,"lon":-81.6889},{"ident":"KNRB","name":"Naval Station Mayport / Admiral David L McDonald Field","lat":30.3911,"lon":-81.4247},{"ident":"KNSE","name":"Whiting Field Naval Air Station - North","lat":30.7242,"lon":-87.0219},{"ident":"KNTD","name":"Point Mugu Naval Air Station (Naval Base Ventura Co)","lat":34.1203,"lon":-119.121},{"ident":"KNTU","name":"Oceana Naval Air Station","lat":36.8207,"lon":-76.0335},{"ident":"KNUQ","name":"Moffett Federal Airfield","lat":37.4161,"lon":-122.049},{"ident":"KNUW","name":"Whidbey Island Naval Air Station (Ault Field)","lat":48.3518,"lon":-122.656},{"ident":"KNXP","name":"Twentynine Palms Strategic Expeditionary Landing Field","lat":34.2962,"lon":-116.162},{"ident":"KNYG","name":"Quantico Marine Corps Airfield / Turner Field","lat":38.5017,"lon":-77.3053},{"ident":"KNYL","name":"Yuma International Airport / Marine Corps Air Station Yuma","lat":32.6509,"lon":-114.6094},{"ident":"KNZY","name":"North Island Naval Air Station-Halsey Field","lat":32.6992,"lon":-117.215},{"ident":"KOAJ","name":"Albert J Ellis Airport","lat":34.8292,"lon":-77.6121},{"ident":"KOAK","name":"San Francisco Bay Oakland International Airport","lat":37.7201,"lon":-122.2212},{"ident":"KOFF","name":"Offutt Air Force Base","lat":41.1193,"lon":-95.9085},{"ident":"KOFK","name":"Karl Stefan Memorial Airport","lat":41.9855,"lon":-97.4351},{"ident":"KOGB","name":"Orangeburg Municipal Airport","lat":33.4568,"lon":-80.8595},{"ident":"KOGD","name":"Ogden Hinckley Airport","lat":41.1959,"lon":-112.012},{"ident":"KOGS","name":"Ogdensburg International Airport","lat":44.6819,"lon":-75.4655},{"ident":"KOKB","name":"Oceanside Municipal Airport","lat":33.2179,"lon":-117.3517},{"ident":"KOKC","name":"OKC Will Rogers World Airport","lat":35.3934,"lon":-97.5982},{"ident":"KOLF","name":"L M Clayton Airport","lat":48.0945,"lon":-105.575},{"ident":"KOLM","name":"Olympia Regional Airport","lat":46.9694,"lon":-122.903},{"ident":"KOLS","name":"Nogales International Airport","lat":31.4177,"lon":-110.848},{"ident":"KOLU","name":"Columbus Municipal Airport","lat":41.4481,"lon":-97.3402},{"ident":"KOMA","name":"Eppley Airfield","lat":41.3032,"lon":-95.8941},{"ident":"KONO","name":"Ontario Municipal Airport","lat":44.0198,"lon":-117.0133},{"ident":"KONP","name":"Newport Municipal Airport","lat":44.5804,"lon":-124.058},{"ident":"KONT","name":"Ontario International Airport","lat":34.056,"lon":-117.601},{"ident":"KOPF","name":"Miami-Opa Locka Executive Airport","lat":25.907,"lon":-80.2784},{"ident":"KOQU","name":"Quonset State Airport","lat":41.5971,"lon":-71.4121},{"ident":"KORD","name":"Chicago O'Hare International Airport","lat":41.9786,"lon":-87.9048},{"ident":"KORF","name":"Norfolk International Airport","lat":36.8953,"lon":-76.201},{"ident":"KORH","name":"Worcester Regional Airport","lat":42.2673,"lon":-71.8757},{"ident":"KORL","name":"Orlando Executive Airport","lat":28.5455,"lon":-81.3329},{"ident":"KORS","name":"Orcas Island Airport","lat":48.7082,"lon":-122.91},{"ident":"KOSH","name":"Wittman Regional Airport","lat":43.9844,"lon":-88.557},{"ident":"KOSU","name":"The Ohio State University Airport - Don Scott Field","lat":40.0798,"lon":-83.073},{"ident":"KOTH","name":"Southwest Oregon Regional Airport","lat":43.4171,"lon":-124.246},{"ident":"KOTM","name":"Ottumwa Regional Airport","lat":41.1064,"lon":-92.4498},{"ident":"KOWB","name":"Owensboro Daviess County Airport","lat":37.7401,"lon":-87.1668},{"ident":"KOWD","name":"Norwood Memorial Airport","lat":42.1905,"lon":-71.1729},{"ident":"KOXB","name":"Ocean City Municipal Airport","lat":38.3104,"lon":-75.124},{"ident":"KOXR","name":"Oxnard Airport","lat":34.2008,"lon":-119.207},{"ident":"KOZR","name":"Cairns AAF (Fort Rucker) Air Field","lat":31.2757,"lon":-85.7134},{"ident":"KPAE","name":"Seattle Paine Field International Airport","lat":47.9063,"lon":-122.282},{"ident":"KPAH","name":"Barkley Regional Airport","lat":37.0608,"lon":-88.7738},{"ident":"KPAM","name":"Tyndall Air Force Base","lat":30.0696,"lon":-85.5754},{"ident":"KPAO","name":"Palo Alto Airport","lat":37.4611,"lon":-122.115},{"ident":"KPBF","name":"Pine Bluff Regional Airport, Grider Field","lat":34.1741,"lon":-91.9356},{"ident":"KPBG","name":"Plattsburgh International Airport","lat":44.6509,"lon":-73.4681},{"ident":"KPBI","name":"Palm Beach International Airport","lat":26.6832,"lon":-80.0956},{"ident":"KPCW","name":"Erie-Ottawa International Airport","lat":41.5156,"lon":-82.8683},{"ident":"KPDK","name":"DeKalb Peachtree Airport","lat":33.8763,"lon":-84.3021},{"ident":"KPDT","name":"Eastern Oregon Regional Airport at Pendleton","lat":45.6951,"lon":-118.841},{"ident":"KPDX","name":"Portland International Airport","lat":45.5887,"lon":-122.598},{"ident":"KPGA","name":"Page Municipal Airport","lat":36.9242,"lon":-111.4477},{"ident":"KPGD","name":"Punta Gorda Airport","lat":26.9202,"lon":-81.9905},{"ident":"KPGV","name":"Pitt-Greenville Airport","lat":35.6355,"lon":-77.3843},{"ident":"KPHF","name":"Newport News Williamsburg International Airport","lat":37.1319,"lon":-76.493},{"ident":"KPHL","name":"Philadelphia International Airport","lat":39.8719,"lon":-75.2411},{"ident":"KPHX","name":"Phoenix Sky Harbor International Airport","lat":33.4353,"lon":-112.0059},{"ident":"KPIA","name":"General Wayne A. Downing Peoria International Airport","lat":40.6638,"lon":-89.6926},{"ident":"KPIB","name":"Hattiesburg Laurel Regional Airport","lat":31.4671,"lon":-89.3371},{"ident":"KPIE","name":"St. Petersburg Clearwater International Airport","lat":27.9102,"lon":-82.6874},{"ident":"KPIH","name":"Pocatello Regional Airport","lat":42.9098,"lon":-112.596},{"ident":"KPIR","name":"Pierre Regional Airport","lat":44.3827,"lon":-100.286},{"ident":"KPIT","name":"Pittsburgh International Airport","lat":40.4915,"lon":-80.2329},{"ident":"KPKB","name":"Mid Ohio Valley Regional Airport","lat":39.3451,"lon":-81.4392},{"ident":"KPLN","name":"Pellston Regional Airport of Emmet County Airport","lat":45.5709,"lon":-84.7967},{"ident":"KPMD","name":"Palmdale Regional Airport / USAF Plant 42 Airport","lat":34.6294,"lon":-118.085},{"ident":"KPNA","name":"Ralph Wenz Field","lat":42.7955,"lon":-109.807},{"ident":"KPNC","name":"Ponca City Regional Airport","lat":36.732,"lon":-97.0998},{"ident":"KPNE","name":"Northeast Philadelphia Airport","lat":40.0824,"lon":-75.0106},{"ident":"KPNS","name":"Pensacola International Airport","lat":30.4727,"lon":-87.1866},{"ident":"KPOB","name":"Pope Field","lat":35.1709,"lon":-79.0145},{"ident":"KPOE","name":"Polk Army Air Field","lat":31.0448,"lon":-93.1917},{"ident":"KPOU","name":"Dutchess County Airport","lat":41.6266,"lon":-73.8842},{"ident":"KPQI","name":"Presque Isle International Airport","lat":46.689,"lon":-68.0448},{"ident":"KPRB","name":"Paso Robles Municipal Airport","lat":35.6729,"lon":-120.627},{"ident":"KPRC","name":"Prescott Regional Airport - Ernest A. Love Field","lat":34.6535,"lon":-112.4199},{"ident":"KPRX","name":"Cox Field","lat":33.6366,"lon":-95.4508},{"ident":"KPSC","name":"Tri Cities Airport","lat":46.2647,"lon":-119.119},{"ident":"KPSM","name":"Portsmouth International Airport at Pease","lat":43.0779,"lon":-70.8233},{"ident":"KPSP","name":"Palm Springs International Airport","lat":33.8297,"lon":-116.507},{"ident":"KPTK","name":"Oakland County International Airport","lat":42.6655,"lon":-83.4201},{"ident":"KPUB","name":"Pueblo Memorial Airport","lat":38.2891,"lon":-104.497},{"ident":"KPUW","name":"Pullman-Moscow Regional Airport","lat":46.7416,"lon":-117.1116},{"ident":"KPVD","name":"Rhode Island T. F. Green International Airport","lat":41.725,"lon":-71.4257},{"ident":"KPVU","name":"Provo Municipal Airport","lat":40.2189,"lon":-111.7224},{"ident":"KPWK","name":"Chicago Executive Airport","lat":42.1142,"lon":-87.9015},{"ident":"KPWM","name":"Portland International Jetport","lat":43.6462,"lon":-70.3093},{"ident":"KPWT","name":"Bremerton National Airport","lat":47.4902,"lon":-122.765},{"ident":"KRAL","name":"Riverside Municipal Airport","lat":33.9519,"lon":-117.445},{"ident":"KRAP","name":"Rapid City Regional Airport","lat":44.0453,"lon":-103.057},{"ident":"KRBL","name":"Red Bluff Municipal Airport","lat":40.1507,"lon":-122.252},{"ident":"KRCA","name":"Ellsworth Air Force Base","lat":44.145,"lon":-103.104},{"ident":"KRDD","name":"Redding Municipal Airport","lat":40.509,"lon":-122.293},{"ident":"KRDG","name":"Reading Regional Airport (Carl A Spaatz Field)","lat":40.3785,"lon":-75.9652},{"ident":"KRDM","name":"Roberts Field","lat":44.2541,"lon":-121.15},{"ident":"KRDR","name":"Grand Forks Air Force Base","lat":47.9611,"lon":-97.4012},{"ident":"KRDU","name":"Raleigh-Durham International Airport","lat":35.8787,"lon":-78.7873},{"ident":"KRFD","name":"Chicago Rockford International Airport","lat":42.1954,"lon":-89.0972},{"ident":"KRHI","name":"Rhinelander Oneida County Airport","lat":45.6312,"lon":-89.4675},{"ident":"KRHP","name":"Western Carolina Regional Airport","lat":35.1952,"lon":-83.863},{"ident":"KRIC","name":"Richmond International Airport","lat":37.5052,"lon":-77.3197},{"ident":"KRIL","name":"Garfield County Regional Airport","lat":39.5263,"lon":-107.727},{"ident":"KRIV","name":"March Air Reserve Base","lat":33.8807,"lon":-117.259},{"ident":"KRIW","name":"Central Wyoming Regional Airport","lat":43.0642,"lon":-108.46},{"ident":"KRKD","name":"Knox County Regional Airport","lat":44.0601,"lon":-69.0992},{"ident":"KRKS","name":"Southwest Wyoming Regional Airport","lat":41.5942,"lon":-109.065},{"ident":"KRME","name":"Griffiss International Airport","lat":43.2338,"lon":-75.407},{"ident":"KRMG","name":"Richard B Russell Airport","lat":34.3506,"lon":-85.158},{"ident":"KRND","name":"Randolph Air Force Base","lat":29.5297,"lon":-98.2789},{"ident":"KRNH","name":"New Richmond Regional Airport","lat":45.1483,"lon":-92.5381},{"ident":"KRNO","name":"Reno Tahoe International Airport","lat":39.4991,"lon":-119.768},{"ident":"KROA","name":"Roanoke\u2013Blacksburg Regional Airport","lat":37.3255,"lon":-79.9754},{"ident":"KROC","name":"Frederick Douglass Greater Rochester International Airport","lat":43.1189,"lon":-77.6724},{"ident":"KROW","name":"Roswell Air Center Airport","lat":33.3016,"lon":-104.531},{"ident":"KRSL","name":"Russell Municipal Airport","lat":38.8721,"lon":-98.8118},{"ident":"KRST","name":"Rochester International Airport","lat":43.9083,"lon":-92.5},{"ident":"KRSW","name":"Southwest Florida International Airport","lat":26.5347,"lon":-81.7528},{"ident":"KRUT","name":"Rutland - Southern Vermont Regional Airport","lat":43.5294,"lon":-72.9496},{"ident":"KRVS","name":"Tulsa Riverside Airport","lat":36.0396,"lon":-95.9846},{"ident":"KRWF","name":"Redwood Falls Municipal Airport","lat":44.5472,"lon":-95.0823},{"ident":"KRWI","name":"Rocky Mount Wilson Regional Airport","lat":35.8563,"lon":-77.8919},{"ident":"KRWL","name":"Rawlins Municipal Airport/Harvey Field","lat":41.8056,"lon":-107.2},{"ident":"KRYY","name":"Cobb County International Airport-McCollum Field","lat":34.0132,"lon":-84.5972},{"ident":"KSAC","name":"Sacramento Executive Airport","lat":38.5125,"lon":-121.493},{"ident":"KSAF","name":"Santa Fe Municipal Airport","lat":35.6171,"lon":-106.089},{"ident":"KSAN","name":"San Diego International Airport","lat":32.7336,"lon":-117.19},{"ident":"KSAT","name":"San Antonio International Airport","lat":29.5337,"lon":-98.4698},{"ident":"KSAV","name":"Savannah Hilton Head International Airport","lat":32.1266,"lon":-81.2},{"ident":"KSAW","name":"Marquette/Sawyer International Airport","lat":46.3515,"lon":-87.3959},{"ident":"KSBA","name":"Santa Barbara Municipal Airport","lat":34.4262,"lon":-119.84},{"ident":"KSBD","name":"San Bernardino International Airport","lat":34.0967,"lon":-117.2366},{"ident":"KSBN","name":"South Bend International Airport","lat":41.7083,"lon":-86.3169},{"ident":"KSBP","name":"San Luis County Regional Airport","lat":35.2368,"lon":-120.642},{"ident":"KSBY","name":"Salisbury Ocean City Wicomico Regional Airport","lat":38.3405,"lon":-75.5103},{"ident":"KSCH","name":"Schenectady County Airport","lat":42.8525,"lon":-73.9289},{"ident":"KSCK","name":"Stockton Metropolitan Airport","lat":37.8933,"lon":-121.2381},{"ident":"KSDF","name":"Louisville Muhammad Ali International Airport","lat":38.1706,"lon":-85.7351},{"ident":"KSDM","name":"Brown Field Municipal Airport","lat":32.5726,"lon":-116.98},{"ident":"KSDY","name":"Sidney - Richland Regional Airport","lat":47.7051,"lon":-104.1944},{"ident":"KSEA","name":"Seattle\u2013Tacoma International Airport","lat":47.4479,"lon":-122.3103},{"ident":"KSFB","name":"Orlando Sanford International Airport","lat":28.7743,"lon":-81.2346},{"ident":"KSFF","name":"Felts Field","lat":47.6829,"lon":-117.3219},{"ident":"KSFO","name":"San Francisco International Airport","lat":37.6198,"lon":-122.3748},{"ident":"KSGF","name":"Springfield Branson National Airport","lat":37.245,"lon":-93.3886},{"ident":"KSGH","name":"Springfield-Beckley Municipal Airport","lat":39.8403,"lon":-83.8402},{"ident":"KSGJ","name":"Northeast Florida Regional Airport","lat":29.9592,"lon":-81.3398},{"ident":"KSGR","name":"Sugar Land Regional Airport","lat":29.6223,"lon":-95.6565},{"ident":"KSGU","name":"St George Regional Airport","lat":37.0364,"lon":-113.5103},{"ident":"KSHD","name":"Shenandoah Valley Regional Airport","lat":38.2638,"lon":-78.8964},{"ident":"KSHR","name":"Sheridan County Airport","lat":44.7692,"lon":-106.98},{"ident":"KSHV","name":"Shreveport Regional Airport","lat":32.4466,"lon":-93.8256},{"ident":"KSJC","name":"Norman Y. Mineta San Jose International Airport","lat":37.3625,"lon":-121.9292},{"ident":"KSJT","name":"San Angelo Regional Mathis Field","lat":31.3577,"lon":-100.496},{"ident":"KSKA","name":"Fairchild Air Force Base","lat":47.6151,"lon":-117.656},{"ident":"KSKF","name":"Lackland Air Force Base","lat":29.3842,"lon":-98.5811},{"ident":"KSKX","name":"Taos Regional Airport","lat":36.4525,"lon":-105.6775},{"ident":"KSLC","name":"Salt Lake City International Airport","lat":40.7889,"lon":-111.9799},{"ident":"KSLE","name":"Salem-Willamette Valley Airport/McNary Field","lat":44.9095,"lon":-123.003},{"ident":"KSLI","name":"Los Alamitos Army Air Field","lat":33.7909,"lon":-118.0503},{"ident":"KSLK","name":"Adirondack Regional Airport","lat":44.3869,"lon":-74.2046},{"ident":"KSLN","name":"Salina Municipal Airport","lat":38.791,"lon":-97.6522},{"ident":"KSME","name":"Lake Cumberland Regional Airport","lat":37.0534,"lon":-84.6159},{"ident":"KSMF","name":"Sacramento International Airport","lat":38.6954,"lon":-121.591},{"ident":"KSMN","name":"Lemhi County Airport","lat":45.1222,"lon":-113.882},{"ident":"KSMO","name":"Santa Monica Municipal Airport","lat":34.0158,"lon":-118.451},{"ident":"KSMX","name":"Santa Maria Public Airport Captain G Allan Hancock Field","lat":34.8989,"lon":-120.457},{"ident":"KSNA","name":"John Wayne Orange County International Airport","lat":33.6751,"lon":-117.8693},{"ident":"KSNS","name":"Salinas Municipal Airport","lat":36.6628,"lon":-121.606},{"ident":"KSNY","name":"Sidney Municipal Airport Lloyd W Carr Field","lat":41.1013,"lon":-102.985},{"ident":"KSOA","name":"Sonora Municipal Airport","lat":30.5857,"lon":-100.649},{"ident":"KSOW","name":"Show Low Regional Airport","lat":34.2641,"lon":-110.0071},{"ident":"KSPI","name":"Abraham Lincoln Capital Airport","lat":39.8441,"lon":-89.6779},{"ident":"KSPS","name":"Wichita Falls Municipal Airport / Sheppard Air Force Base","lat":33.9888,"lon":-98.4919},{"ident":"KSQL","name":"San Carlos Airport","lat":37.5131,"lon":-122.2508},{"ident":"KSRQ","name":"Sarasota Bradenton International Airport","lat":27.3946,"lon":-82.5544},{"ident":"KSRR","name":"Sierra Blanca Regional Airport","lat":33.4628,"lon":-105.535},{"ident":"KSSC","name":"Shaw Air Force Base","lat":33.9727,"lon":-80.4706},{"ident":"KSSF","name":"Stinson Municipal Airport","lat":29.337,"lon":-98.4711},{"ident":"KSSI","name":"St Simons Island Airport","lat":31.1518,"lon":-81.3913},{"ident":"KSTC","name":"Saint Cloud Regional Airport","lat":45.5466,"lon":-94.0599},{"ident":"KSTJ","name":"Rosecrans Memorial Airport","lat":39.7719,"lon":-94.9097},{"ident":"KSTL","name":"St. Louis Lambert International Airport","lat":38.7487,"lon":-90.37},{"ident":"KSTP","name":"Saint Paul Downtown Holman Field","lat":44.9348,"lon":-93.06},{"ident":"KSTS","name":"Charles M. Schulz Sonoma County Airport","lat":38.509,"lon":-122.813},{"ident":"KSUN","name":"Friedman Memorial Airport","lat":43.5044,"lon":-114.296},{"ident":"KSUS","name":"Spirit of St Louis Airport","lat":38.6621,"lon":-90.652},{"ident":"KSUU","name":"Travis Air Force Base","lat":38.2627,"lon":-121.927},{"ident":"KSUX","name":"Sioux Gateway Airport / Brigadier General Bud Day Field","lat":42.3976,"lon":-96.3822},{"ident":"KSUZ","name":"Saline County Regional Airport","lat":34.5906,"lon":-92.4794},{"ident":"KSVC","name":"Grant County Airport","lat":32.6367,"lon":-108.1547},{"ident":"KSVN","name":"Hunter Army Air Field","lat":32.01,"lon":-81.1457},{"ident":"KSWF","name":"New York Stewart International Airport","lat":41.5042,"lon":-74.1089},{"ident":"KSWO","name":"Stillwater Regional Airport","lat":36.1621,"lon":-97.0856},{"ident":"KSYR","name":"Syracuse Hancock International Airport","lat":43.1112,"lon":-76.1063},{"ident":"KSZL","name":"Whiteman Air Force Base","lat":38.7303,"lon":-93.5479},{"ident":"KTBN","name":"Waynesville-St. Robert Regional Airport-Forney Field","lat":37.7416,"lon":-92.1407},{"ident":"KTCC","name":"Tucumcari Municipal Airport","lat":35.1828,"lon":-103.603},{"ident":"KTCL","name":"Tuscaloosa National Airport","lat":33.2206,"lon":-87.6114},{"ident":"KTCM","name":"McChord Air Force Base","lat":47.1377,"lon":-122.476},{"ident":"KTCS","name":"Truth or Consequences Municipal Airport","lat":33.2369,"lon":-107.272},{"ident":"KTEB","name":"Teterboro Airport","lat":40.8501,"lon":-74.0608},{"ident":"KTEX","name":"Telluride Regional Airport","lat":37.9538,"lon":-107.908},{"ident":"KTIK","name":"Tinker Air Force Base","lat":35.4147,"lon":-97.3866},{"ident":"KTIW","name":"Tacoma Narrows Airport","lat":47.2674,"lon":-122.5773},{"ident":"KTIX","name":"Space Coast Regional Airport","lat":28.5148,"lon":-80.7992},{"ident":"KTLH","name":"Tallahassee International Airport","lat":30.4012,"lon":-84.3543},{"ident":"KTMB","name":"Miami Executive Airport","lat":25.6479,"lon":-80.4328},{"ident":"KTOI","name":"Troy Municipal Airport at N Kenneth Campbell Field","lat":31.8604,"lon":-86.0121},{"ident":"KTOL","name":"Eugene F. Kranz Toledo Express Airport","lat":41.5868,"lon":-83.8078},{"ident":"KTOP","name":"Philip Billard Municipal Airport","lat":39.0699,"lon":-95.6226},{"ident":"KTPA","name":"Tampa International Airport","lat":27.9755,"lon":-82.5332},{"ident":"KTPH","name":"Tonopah Airport","lat":38.0602,"lon":-117.087},{"ident":"KTPL","name":"Draughon Miller Central Texas Regional Airport","lat":31.1525,"lon":-97.4078},{"ident":"KTRI","name":"Tri-Cities Regional TN/VA Airport","lat":36.4752,"lon":-82.4074},{"ident":"KTRK","name":"Truckee Tahoe Airport","lat":39.3186,"lon":-120.1406},{"ident":"KTRM","name":"Jacqueline Cochran Regional Airport","lat":33.6267,"lon":-116.16},{"ident":"KTTD","name":"Portland Troutdale Airport","lat":45.5494,"lon":-122.401},{"ident":"KTTN","name":"Trenton Mercer Airport","lat":40.2767,"lon":-74.8135},{"ident":"KTTS","name":"Space Florida Launch and Landing Facility","lat":28.615,"lon":-80.6945},{"ident":"KTUL","name":"Tulsa International Airport","lat":36.1971,"lon":-95.8862},{"ident":"KTUP","name":"Tupelo Regional Airport","lat":34.2681,"lon":-88.7699},{"ident":"KTUS","name":"Tucson International Airport","lat":32.115,"lon":-110.9381},{"ident":"KTVC","name":"Cherry Capital Airport","lat":44.7414,"lon":-85.5822},{"ident":"KTVF","name":"Thief River Falls Regional Airport","lat":48.0657,"lon":-96.185},{"ident":"KTVL","name":"Lake Tahoe Airport","lat":38.8939,"lon":-119.995},{"ident":"KTWF","name":"Joslin Field Magic Valley Regional Airport","lat":42.4818,"lon":-114.488},{"ident":"KTXK","name":"Texarkana Regional Airport (Webb Field)","lat":33.4537,"lon":-93.991},{"ident":"KTYR","name":"Tyler Pounds Regional Airport","lat":32.3541,"lon":-95.4024},{"ident":"KTYS","name":"McGhee Tyson Airport","lat":35.811,"lon":-83.994},{"ident":"KU42","name":"South Valley Regional Airport","lat":40.6195,"lon":-111.993},{"ident":"KUAO","name":"Aurora State Airport","lat":45.2471,"lon":-122.77},{"ident":"KUIN","name":"Quincy Regional Airport Baldwin Field","lat":39.9427,"lon":-91.1946},{"ident":"KUKI","name":"Ukiah Municipal Airport","lat":39.126,"lon":-123.201},{"ident":"KUNV","name":"State College Regional Airport","lat":40.8494,"lon":-77.8485},{"ident":"KUOX","name":"University Oxford Airport","lat":34.3843,"lon":-89.5368},{"ident":"KUTS","name":"Huntsville Regional Airport","lat":30.7469,"lon":-95.5872},{"ident":"KUUU","name":"Newport State Airport","lat":41.5322,"lon":-71.281},{"ident":"KVAD","name":"Moody Air Force Base","lat":30.9678,"lon":-83.193},{"ident":"KVBG","name":"Vandenberg Space Force Base","lat":34.7373,"lon":-120.584},{"ident":"KVCT","name":"Victoria Regional Airport","lat":28.8526,"lon":-96.9185},{"ident":"KVEL","name":"Vernal Regional Airport","lat":40.4362,"lon":-109.5117},{"ident":"KVGT","name":"North Las Vegas Airport","lat":36.2091,"lon":-115.194},{"ident":"KVIS","name":"Visalia Municipal Airport","lat":36.3187,"lon":-119.393},{"ident":"KVLD","name":"Valdosta Regional Airport","lat":30.7825,"lon":-83.2767},{"ident":"KVNY","name":"Van Nuys Airport","lat":34.2098,"lon":-118.49},{"ident":"KVOK","name":"Volk Field","lat":43.939,"lon":-90.2534},{"ident":"KVPS","name":"Destin-Fort Walton Beach Airport","lat":30.4813,"lon":-86.5158},{"ident":"KVPZ","name":"Porter County Municipal Airport","lat":41.454,"lon":-87.0071},{"ident":"KVQQ","name":"Cecil Airport","lat":30.2187,"lon":-81.8767},{"ident":"KVRB","name":"Vero Beach Regional Airport","lat":27.6556,"lon":-80.4179},{"ident":"KVTN","name":"Miller Field","lat":42.8562,"lon":-100.5492},{"ident":"KW63","name":"Lake Country Regional Airport","lat":36.5958,"lon":-78.5601},{"ident":"KWJF","name":"General William J Fox Airfield","lat":34.7411,"lon":-118.219},{"ident":"KWMC","name":"Winnemucca Municipal Airport","lat":40.8966,"lon":-117.806},{"ident":"KWRB","name":"Robins Air Force Base","lat":32.6401,"lon":-83.5919},{"ident":"KWRI","name":"Mc Guire Air Force Base","lat":40.0156,"lon":-74.5917},{"ident":"KWRL","name":"Worland Municipal Airport","lat":43.9657,"lon":-107.951},{"ident":"KWST","name":"Westerly State Airport","lat":41.3496,"lon":-71.8034},{"ident":"KWWD","name":"Cape May County Airport","lat":39.0085,"lon":-74.9083},{"ident":"KWWR","name":"West Woodward Airport","lat":36.438,"lon":-99.5227},{"ident":"KWYS","name":"Yellowstone Airport","lat":44.6884,"lon":-111.118},{"ident":"KX51","name":"Miami Homestead General Aviation Airport","lat":25.4992,"lon":-80.5543},{"ident":"KXMR","name":"Cape Canaveral SFS Skid Strip","lat":28.4676,"lon":-80.5666},{"ident":"KXNA","name":"Northwest Arkansas National Airport","lat":36.2819,"lon":-94.3068},{"ident":"KXTA","name":"Homey (Area 51) Airport","lat":37.235,"lon":-115.811},{"ident":"KXWA","name":"Williston Basin International Airport","lat":48.2609,"lon":-103.7512},{"ident":"KYIP","name":"Willow Run Airport","lat":42.2379,"lon":-83.5304},{"ident":"KYKM","name":"Yakima Air Terminal McAllister Field","lat":46.5682,"lon":-120.544},{"ident":"KYKN","name":"Chan Gurney Municipal Airport","lat":42.9167,"lon":-97.3859},{"ident":"KYNG","name":"Youngstown Warren Regional Airport","lat":41.2607,"lon":-80.6791},{"ident":"KZZV","name":"Zanesville Municipal Airport","lat":39.9444,"lon":-81.8921},{"ident":"PAAQ","name":"Warren \"Bud\" Woods Palmer Municipal Airport","lat":61.5949,"lon":-149.089},{"ident":"PABA","name":"Barter Island Long Range Radar Station Airport","lat":70.134,"lon":-143.582},{"ident":"PABE","name":"Bethel Airport","lat":60.7798,"lon":-161.838},{"ident":"PABI","name":"Allen Army Airfield","lat":63.9945,"lon":-145.722},{"ident":"PABR","name":"Wiley Post Will Rogers Memorial Airport","lat":71.2854,"lon":-156.766},{"ident":"PABV","name":"Birchwood Airport","lat":61.4165,"lon":-149.507},{"ident":"PACD","name":"Cold Bay Airport","lat":55.2079,"lon":-162.725},{"ident":"PACL","name":"Clear Airport","lat":64.2997,"lon":-149.1174},{"ident":"PACV","name":"Merle K (Mudhole) Smith Airport","lat":60.4918,"lon":-145.478},{"ident":"PACZ","name":"Cape Romanzof LRRS Airport","lat":61.7803,"lon":-166.039},{"ident":"PADE","name":"Deering Airport","lat":66.0689,"lon":-162.7669},{"ident":"PADK","name":"Adak Airport","lat":51.8836,"lon":-176.6428},{"ident":"PADL","name":"Dillingham Airport","lat":59.0447,"lon":-158.505},{"ident":"PADQ","name":"Kodiak Airport","lat":57.75,"lon":-152.494},{"ident":"PADU","name":"Tom Madsen (Dutch Harbor) Airport","lat":53.8988,"lon":-166.545},{"ident":"PAED","name":"Elmendorf Air Force Base","lat":61.2517,"lon":-149.8071},{"ident":"PAEH","name":"Cape Newenham LRRS Airport","lat":58.6464,"lon":-162.063},{"ident":"PAEI","name":"Eielson Air Force Base","lat":64.6657,"lon":-147.102},{"ident":"PAEM","name":"Emmonak Airport","lat":62.7861,"lon":-164.491},{"ident":"PAEN","name":"Kenai Municipal Airport","lat":60.5709,"lon":-151.2452},{"ident":"PAFA","name":"Fairbanks International Airport","lat":64.8151,"lon":-147.856},{"ident":"PAFB","name":"Ladd Army Airfield","lat":64.8375,"lon":-147.614},{"ident":"PAFE","name":"Kake Airport","lat":56.9613,"lon":-133.9102},{"ident":"PAFM","name":"Ambler Airport","lat":67.1055,"lon":-157.8553},{"ident":"PAGA","name":"Edward G. Pitka Sr Airport","lat":64.7362,"lon":-156.937},{"ident":"PAGK","name":"Gulkana Airport","lat":62.1559,"lon":-145.4547},{"ident":"PAGM","name":"Gambell Airport","lat":63.7677,"lon":-171.7333},{"ident":"PAGS","name":"Gustavus Airport","lat":58.4253,"lon":-135.707},{"ident":"PAHC","name":"Holy Cross Airport","lat":62.1883,"lon":-159.775},{"ident":"PAHL","name":"Huslia Airport","lat":65.6979,"lon":-156.351},{"ident":"PAHN","name":"Haines Airport","lat":59.2439,"lon":-135.5239},{"ident":"PAHO","name":"Homer Airport","lat":59.6445,"lon":-151.4792},{"ident":"PAII","name":"Egegik Airport","lat":58.1844,"lon":-157.3749},{"ident":"PAIK","name":"Bob Baker Memorial Airport","lat":66.9761,"lon":-160.439},{"ident":"PAIL","name":"Iliamna Airport","lat":59.7544,"lon":-154.911},{"ident":"PAIM","name":"Indian Mountain LRRS Airport","lat":65.9928,"lon":-153.704},{"ident":"PAJN","name":"Juneau International Airport","lat":58.3549,"lon":-134.5744},{"ident":"PAKN","name":"King Salmon Airport","lat":58.6778,"lon":-156.652},{"ident":"PAKP","name":"Anaktuvuk Pass Airport","lat":68.1336,"lon":-151.743},{"ident":"PAKT","name":"Ketchikan International Airport","lat":55.3556,"lon":-131.714},{"ident":"PAKW","name":"Klawock Airport","lat":55.5792,"lon":-133.076},{"ident":"PALU","name":"Cape Lisburne LRRS Airport","lat":68.8751,"lon":-166.11},{"ident":"PAMC","name":"McGrath Airport","lat":62.9529,"lon":-155.606},{"ident":"PAMR","name":"Merrill Field","lat":61.2128,"lon":-149.844},{"ident":"PAMY","name":"Mekoryuk Airport","lat":60.3723,"lon":-166.2698},{"ident":"PANC","name":"Ted Stevens Anchorage International Airport","lat":61.179,"lon":-149.9926},{"ident":"PANI","name":"Aniak Airport","lat":61.5816,"lon":-159.543},{"ident":"PANN","name":"Nenana Municipal Airport","lat":64.5488,"lon":-149.0745},{"ident":"PANT","name":"Annette Island Airport","lat":55.0377,"lon":-131.5726},{"ident":"PANV","name":"Anvik Airport","lat":62.6467,"lon":-160.191},{"ident":"PAOM","name":"Nome Airport","lat":64.5122,"lon":-165.445},{"ident":"PAOR","name":"Northway Airport","lat":62.9613,"lon":-141.929},{"ident":"PAOT","name":"Ralph Wien Memorial Airport","lat":66.8847,"lon":-162.599},{"ident":"PAPB","name":"St George Airport","lat":56.5773,"lon":-169.6638},{"ident":"PAPC","name":"Port Clarence Coast Guard Station","lat":65.2537,"lon":-166.859},{"ident":"PAPG","name":"Petersburg James A Johnson Airport","lat":56.8017,"lon":-132.945},{"ident":"PAPH","name":"Port Heiden Airport","lat":56.9579,"lon":-158.6302},{"ident":"PAPM","name":"Platinum Airport","lat":59.0177,"lon":-161.8279},{"ident":"PAQT","name":"Nuiqsut Airport","lat":70.21,"lon":-151.006},{"ident":"PARC","name":"Arctic Village Airport","lat":68.1147,"lon":-145.579},{"ident":"PARY","name":"Ruby Airport","lat":64.7272,"lon":-155.47},{"ident":"PASA","name":"Savoonga Airport","lat":63.6864,"lon":-170.493},{"ident":"PASC","name":"Deadhorse Airport","lat":70.1947,"lon":-148.465},{"ident":"PASD","name":"Sand Point Airport","lat":55.3139,"lon":-160.5221},{"ident":"PASI","name":"Sitka Rocky Gutierrez Airport","lat":57.0471,"lon":-135.362},{"ident":"PASN","name":"St Paul Island Airport","lat":57.1663,"lon":-170.2226},{"ident":"PASV","name":"Sparrevohn LRRS Airport","lat":61.0974,"lon":-155.574},{"ident":"PASX","name":"Soldotna Airport","lat":60.4749,"lon":-151.0385},{"ident":"PASY","name":"Eareckson Air Station","lat":52.7123,"lon":174.114},{"ident":"PATK","name":"Talkeetna Airport","lat":62.3205,"lon":-150.094},{"ident":"PATL","name":"Tatalina LRRS Airport","lat":62.8944,"lon":-155.977},{"ident":"PATQ","name":"Atqasuk Edward Burnell Sr Memorial Airport","lat":70.467,"lon":-157.436},{"ident":"PAUN","name":"Unalakleet Airport","lat":63.8884,"lon":-160.799},{"ident":"PAVD","name":"Valdez Pioneer Field","lat":61.1327,"lon":-146.2466},{"ident":"PAWD","name":"Seward Airport","lat":60.1305,"lon":-149.4186},{"ident":"PAWG","name":"Wrangell Airport","lat":56.4843,"lon":-132.37},{"ident":"PAWI","name":"Wainwright Airport","lat":70.638,"lon":-159.995},{"ident":"PAWS","name":"Wasilla Airport","lat":61.5717,"lon":-149.54},{"ident":"PAYA","name":"Yakutat Airport","lat":59.5087,"lon":-139.6604},{"ident":"PFYU","name":"Fort Yukon Airport","lat":66.5717,"lon":-145.25},{"ident":"PHBK","name":"Barking Sands Airport","lat":22.0228,"lon":-159.785},{"ident":"PHHN","name":"Hana Airport","lat":20.7956,"lon":-156.014},{"ident":"PHIK","name":"Hickam Air Force Base","lat":21.3353,"lon":-157.9483},{"ident":"PHJH","name":"Kapalua Airport","lat":20.9629,"lon":-156.673},{"ident":"PHJR","name":"Kalaeloa Airport","lat":21.3074,"lon":-158.07},{"ident":"PHKO","name":"Ellison Onizuka Kona International Airport at Ke\u0101hole","lat":19.7388,"lon":-156.0456},{"ident":"PHLI","name":"Lihue Airport","lat":21.9744,"lon":-159.3371},{"ident":"PHMK","name":"Molokai Airport","lat":21.1529,"lon":-157.096},{"ident":"PHMU","name":"Waimea Kohala Airport","lat":20.0013,"lon":-155.668},{"ident":"PHNG","name":"Kaneohe Bay MCAS (Marion E. Carl Field) Airport","lat":21.4505,"lon":-157.768},{"ident":"PHNL","name":"Daniel K. Inouye International Airport","lat":21.3184,"lon":-157.9257},{"ident":"PHNY","name":"Lanai Airport","lat":20.7857,"lon":-156.9513},{"ident":"PHOG","name":"Kahului International Airport","lat":20.8963,"lon":-156.4318},{"ident":"PHTO","name":"Hilo International Airport","lat":19.7214,"lon":-155.0454},{"ident":"PPIZ","name":"Point Lay LRRS Airport","lat":69.7329,"lon":-163.005}]